{"type":"FeatureCollection","features":[{"type":"Feature","properties":{"name":"Cancún","hs":1.2,"color":"#f9d423","label":"Cancún\n🌊 1.2 m\n🌡 28°"},"geometry":{"type":"Point","coordinates":[-86.85,21.16]}},{"type":"Feature","properties":{"name":"Playa del Carmen","hs":0.7,"color":"#f9d423","label":"Playa del Carmen\n🌊 0.7 m\n🌡 29°"},"geometry":{"type":"Point","coordinates":[-87.07,20.63]}},{"type":"Feature","properties":{"name":"Cozumel","hs":0.6,"color":"#f9d423","label":"Cozumel\n🌊 0.6 m\n🌡 29°"},"geometry":{"type":"Point","coordinates":[-86.95,20.42]}},{"type":"Feature","properties":{"name":"Veracruz","hs":0.8,"color":"#f08a24","label":"Veracruz\n🌊 0.8 m\n🌡 30°"},"geometry":{"type":"Point","coordinates":[-96.13,19.18]}},{"type":"Feature","properties":{"name":"Tampico","hs":0.8,"color":"#f9d423","label":"Tampico\n🌊 0.8 m\n🌡 28°"},"geometry":{"type":"Point","coordinates":[-97.86,22.25]}},{"type":"Feature","properties":{"name":"Acapulco","hs":1.0,"color":"#f08a24","label":"Acapulco\n🌊 1.0 m\n🌡 31°"},"geometry":{"type":"Point","coordinates":[-99.82,16.85]}},{"type":"Feature","properties":{"name":"Puerto Vallarta","hs":0.7,"color":"#f08a24","label":"Puerto Vallarta\n🌊 0.7 m\n🌡 30°"},"geometry":{"type":"Point","coordinates":[-105.23,20.65]}},{"type":"Feature","properties":{"name":"Mazatlán","hs":1.0,"color":"#f08a24","label":"Mazatlán\n🌊 1.0 m\n🌡 30°"},"geometry":{"type":"Point","coordinates":[-106.42,23.22]}},{"type":"Feature","properties":{"name":"Los Cabos","hs":1.3,"color":"#f9d423","label":"Los Cabos\n🌊 1.3 m\n🌡 28°"},"geometry":{"type":"Point","coordinates":[-109.7,22.89]}},{"type":"Feature","properties":{"name":"La Paz","hs":0,"color":"#7ad151","label":"La Paz\n🌡 26°"},"geometry":{"type":"Point","coordinates":[-110.31,24.14]}},{"type":"Feature","properties":{"name":"Huatulco","hs":1.1,"color":"#f08a24","label":"Huatulco\n🌊 1.1 m\n🌡 32°"},"geometry":{"type":"Point","coordinates":[-96.13,15.77]}},{"type":"Feature","properties":{"name":"Puerto Escondido","hs":1.2,"color":"#f08a24","label":"Puerto Escondido\n🌊 1.2 m\n🌡 31°"},"geometry":{"type":"Point","coordinates":[-97.07,15.86]}},{"type":"Feature","properties":{"name":"Manzanillo","hs":1.0,"color":"#f08a24","label":"Manzanillo\n🌊 1.0 m\n🌡 30°"},"geometry":{"type":"Point","coordinates":[-104.32,19.11]}},{"type":"Feature","properties":{"name":"Ensenada","hs":1.2,"color":"#5b8ff9","label":"Ensenada\n🌊 1.2 m\n🌡 17°"},"geometry":{"type":"Point","coordinates":[-116.6,31.86]}}],"metadata":{"source":"Open-Meteo Marine API","license":"CC-BY 4.0","updated":"2026-05-29T03:23:56Z","count":14}}